{"type":"FeatureCollection", "features": [
{"type":"Feature","geometry":{"type":"Point","coordinates":[-70.03881037,12.52]},"properties":{"name":"Oranjestad","scalerank":3,"website":"www.arubaports.com","natlscale":75,"featurecla":"Port"}},
{"type":"Feature","geometry":{"type":"Point","coordinates":[55.26931684,25.26722222]},"properties":{"name":"Dubai","scalerank":3,"website":"www.dpa.ae","natlscale":75,"featurecla":"Port"}},
{"type":"Feature","geometry":{"type":"Point","coordinates":[-58.3696702,-34.59916667]},"properties":{"name":"Buenos Aires","scalerank":3,"website":"www.puertobuenosaires.gov.ar","natlscale":75,"featurecla":"Port"}},
{"type":"Feature","geometry":{"type":"Point","coordinates":[130.854947,-12.47027778]},"properties":{"name":"Darwin","scalerank":3,"website":"www.darwinport.nt.gov.au","natlscale":75,"featurecla":"Port"}},
{"type":"Feature","geometry":{"type":"Point","coordinates":[144.9171967,-37.83277778]},"properties":{"name":"Melbourne","scalerank":3,"website":"www.portofmelbourne.com","natlscale":75,"featurecla":"Port"}},
{"type":"Feature","geometry":{"type":"Point","coordinates":[115.855477,-31.96527778]},"properties":{"name":"Perth","scalerank":3,"website":"","natlscale":75,"featurecla":"Port"}},
{"type":"Feature","geometry":{"type":"Point","coordinates":[151.1891637,-33.86222222]},"properties":{"name":"Sydney","scalerank":3,"website":"www.sydneyports.com.au","natlscale":75,"featurecla":"Port"}},
{"type":"Feature","geometry":{"type":"Point","coordinates":[2.422320377,6.346666667]},"properties":{"name":"Cotonou","scalerank":3,"website":"www.portdecotonou.com","natlscale":75,"featurecla":"Port"}},
{"type":"Feature","geometry":{"type":"Point","coordinates":[-77.32126031,25.07666667]},"properties":{"name":"Nassau","scalerank":3,"website":"","natlscale":75,"featurecla":"Port"}},
{"type":"Feature","geometry":{"type":"Point","coordinates":[-43.1918139,-22.88305556]},"properties":{"name":"Rio de Janeiro","scalerank":3,"website":"www.portosrio.gov.br","natlscale":75,"featurecla":"Port"}},
{"type":"Feature","geometry":{"type":"Point","coordinates":[-123.071437,49.29777778]},"properties":{"name":"Vancouver","scalerank":3,"website":"www.portmetrovancouver.com","natlscale":75,"featurecla":"Port"}},
{"type":"Feature","geometry":{"type":"Point","coordinates":[-64.70371025,44.04333333]},"properties":{"name":"Liverpool","scalerank":3,"website":"","natlscale":75,"featurecla":"Port"}},
{"type":"Feature","geometry":{"type":"Point","coordinates":[-71.61914016,-33.03527778]},"properties":{"name":"Valparaiso","scalerank":3,"website":"www.portvalparaiso.cl","natlscale":75,"featurecla":"Port"}},
{"type":"Feature","geometry":{"type":"Point","coordinates":[113.409364,23.09416667]},"properties":{"name":"Guangzhou","scalerank":3,"website":"www.gzport.com","natlscale":75,"featurecla":"Port"}},
{"type":"Feature","geometry":{"type":"Point","coordinates":[117.4565371,39.00944444]},"properties":{"name":"Tianjin","scalerank":3,"website":"www.ptacn.com","natlscale":75,"featurecla":"Port"}},
{"type":"Feature","geometry":{"type":"Point","coordinates":[-4.021260306,5.283333333]},"properties":{"name":"Abidjan","scalerank":3,"website":"www.paa-ci.org","natlscale":75,"featurecla":"Port"}},
{"type":"Feature","geometry":{"type":"Point","coordinates":[8.553003534,53.56361111]},"properties":{"name":"Bremerhaven","scalerank":3,"website":"www.bremen-ports.de","natlscale":75,"featurecla":"Port"}},
{"type":"Feature","geometry":{"type":"Point","coordinates":[12.11790342,54.1525]},"properties":{"name":"Rostock","scalerank":3,"website":"www.rostock-port.de","natlscale":75,"featurecla":"Port"}},
{"type":"Feature","geometry":{"type":"Point","coordinates":[12.58404005,55.72611111]},"properties":{"name":"Tuborg","scalerank":3,"website":"","natlscale":75,"featurecla":"Port"}},
{"type":"Feature","geometry":{"type":"Point","coordinates":[-79.9024735,-2.284166667]},"properties":{"name":"Guayaquil","scalerank":3,"website":"www.puertodeguayaquil.com","natlscale":75,"featurecla":"Port"}},
{"type":"Feature","geometry":{"type":"Point","coordinates":[32.30600707,31.25333333]},"properties":{"name":"Port Said","scalerank":3,"website":"www.psdports.org","natlscale":75,"featurecla":"Port"}},
{"type":"Feature","geometry":{"type":"Point","coordinates":[2.168786808,41.35472222]},"properties":{"name":"Barcelona","scalerank":3,"website":"www.apb.es","natlscale":75,"featurecla":"Port"}},
{"type":"Feature","geometry":{"type":"Point","coordinates":[-4.418256773,36.70944444]},"properties":{"name":"Malaga","scalerank":3,"website":"www.puertomalaga.com","natlscale":75,"featurecla":"Port"}},
{"type":"Feature","geometry":{"type":"Point","coordinates":[2.62532391,39.55111111]},"properties":{"name":"Palma de Mallorca","scalerank":3,"website":"www.portdemallorca.com","natlscale":75,"featurecla":"Port"}},
{"type":"Feature","geometry":{"type":"Point","coordinates":[0.173733804,49.46694444]},"properties":{"name":"Le Havre","scalerank":3,"website":"www.havre-port.net","natlscale":75,"featurecla":"Port"}},
{"type":"Feature","geometry":{"type":"Point","coordinates":[5.341283863,43.32944444]},"properties":{"name":"Marseille","scalerank":3,"website":"www.marseille-port.fr","natlscale":75,"featurecla":"Port"}},
{"type":"Feature","geometry":{"type":"Point","coordinates":[7.285630153,43.69388889]},"properties":{"name":"Nice","scalerank":3,"website":"www.riviera-ports.com","natlscale":75,"featurecla":"Port"}},
{"type":"Feature","geometry":{"type":"Point","coordinates":[-0.067196702,51.50277778]},"properties":{"name":"London","scalerank":3,"website":"www.pla.co.uk","natlscale":75,"featurecla":"Port"}},
{"type":"Feature","geometry":{"type":"Point","coordinates":[22.56755006,36.76]},"properties":{"name":"Gythion","scalerank":3,"website":"","natlscale":75,"featurecla":"Port"}},
{"type":"Feature","geometry":{"type":"Point","coordinates":[28.23351001,36.44361111]},"properties":{"name":"Rhodes","scalerank":3,"website":"","natlscale":75,"featurecla":"Port"}},
{"type":"Feature","geometry":{"type":"Point","coordinates":[18.07638398,42.66]},"properties":{"name":"Dubrovnik","scalerank":3,"website":"www.portdubrovnik.hr","natlscale":75,"featurecla":"Port"}},
{"type":"Feature","geometry":{"type":"Point","coordinates":[11.77567727,42.09888889]},"properties":{"name":"Civitavecchia","scalerank":3,"website":"www.portidiroma.it","natlscale":75,"featurecla":"Port"}},
{"type":"Feature","geometry":{"type":"Point","coordinates":[13.36984688,38.13083333]},"properties":{"name":"Palermo","scalerank":3,"website":"www.autport.pa.it","natlscale":75,"featurecla":"Port"}},
{"type":"Feature","geometry":{"type":"Point","coordinates":[8.489517079,44.31166667]},"properties":{"name":"Savona","scalerank":3,"website":"www.porto.sv.it","natlscale":75,"featurecla":"Port"}},
{"type":"Feature","geometry":{"type":"Point","coordinates":[12.24057715,45.45305556]},"properties":{"name":"Marghera","scalerank":3,"website":"www.port.venice.it","natlscale":75,"featurecla":"Port"}},
{"type":"Feature","geometry":{"type":"Point","coordinates":[-77.93545347,18.4675]},"properties":{"name":"Montego Bay","scalerank":3,"website":"www.portjam.com","natlscale":75,"featurecla":"Port"}},
{"type":"Feature","geometry":{"type":"Point","coordinates":[135.4338634,34.63583333]},"properties":{"name":"Osaka","scalerank":3,"website":"www.optc.or.jp","natlscale":75,"featurecla":"Port"}},
{"type":"Feature","geometry":{"type":"Point","coordinates":[139.6673734,35.43638889]},"properties":{"name":"Yokohama","scalerank":3,"website":"www.city.yokohama.jp/me/port/en/index.html","natlscale":75,"featurecla":"Port"}},
{"type":"Feature","geometry":{"type":"Point","coordinates":[24.08810365,57.00777778]},"properties":{"name":"Riga","scalerank":3,"website":"www.rop.lv","natlscale":75,"featurecla":"Port"}},
{"type":"Feature","geometry":{"type":"Point","coordinates":[-109.9007067,22.88388889]},"properties":{"name":"Cabo San Lucas","scalerank":3,"website":"","natlscale":75,"featurecla":"Port"}},
{"type":"Feature","geometry":{"type":"Point","coordinates":[14.54128386,35.82611111]},"properties":{"name":"Marsaxlokk","scalerank":3,"website":"www.maltafreeport.com.mt","natlscale":75,"featurecla":"Port"}},
{"type":"Feature","geometry":{"type":"Point","coordinates":[4.824087161,52.41305556]},"properties":{"name":"Amsterdam","scalerank":3,"website":"www.amsterdamports.nl","natlscale":75,"featurecla":"Port"}},
{"type":"Feature","geometry":{"type":"Point","coordinates":[10.73457008,59.89722222]},"properties":{"name":"Oslo","scalerank":3,"website":"www.ohv.oslo.no","natlscale":75,"featurecla":"Port"}},
{"type":"Feature","geometry":{"type":"Point","coordinates":[174.7694935,-36.83638889]},"properties":{"name":"Auckland","scalerank":3,"website":"www.poal.co.nz","natlscale":75,"featurecla":"Port"}},
{"type":"Feature","geometry":{"type":"Point","coordinates":[66.9737338,24.835]},"properties":{"name":"Karachi","scalerank":3,"website":"www.kpt.gov.pk","natlscale":75,"featurecla":"Port"}},
{"type":"Feature","geometry":{"type":"Point","coordinates":[-79.88510012,9.373333333]},"properties":{"name":"Colon","scalerank":3,"website":"www.cct-pa.com","natlscale":75,"featurecla":"Port"}},
{"type":"Feature","geometry":{"type":"Point","coordinates":[120.943404,14.52416667]},"properties":{"name":"Manila","scalerank":3,"website":"www.ppa.com.ph","natlscale":75,"featurecla":"Port"}},
{"type":"Feature","geometry":{"type":"Point","coordinates":[-66.09128386,18.43611111]},"properties":{"name":"San Juan","scalerank":3,"website":"www.prpa.gobierno.pr","natlscale":75,"featurecla":"Port"}},
{"type":"Feature","geometry":{"type":"Point","coordinates":[28.993404,41.01277778]},"properties":{"name":"Istanbul","scalerank":3,"website":"www.tdi.com.tr","natlscale":75,"featurecla":"Port"}},
{"type":"Feature","geometry":{"type":"Point","coordinates":[121.3746172,25.15194444]},"properties":{"name":"Taipei","scalerank":3,"website":"www.tpport.gov.tw","natlscale":75,"featurecla":"Port"}},
{"type":"Feature","geometry":{"type":"Point","coordinates":[39.293404,-6.834444444]},"properties":{"name":"Dar es Salaam","scalerank":3,"website":"www.tanzaniaports.com","natlscale":75,"featurecla":"Port"}},
{"type":"Feature","geometry":{"type":"Point","coordinates":[-88.03775029,30.71138889]},"properties":{"name":"Mobile","scalerank":3,"website":"www.asdd.com","natlscale":75,"featurecla":"Port"}},
{"type":"Feature","geometry":{"type":"Point","coordinates":[-118.2597173,33.73194444]},"properties":{"name":"Los Angeles","scalerank":3,"website":"www.portoflosangeles.org","natlscale":75,"featurecla":"Port"}},
{"type":"Feature","geometry":{"type":"Point","coordinates":[-117.1572438,32.68444444]},"properties":{"name":"San Diego","scalerank":3,"website":"www.portofsandiego.org","natlscale":75,"featurecla":"Port"}},
{"type":"Feature","geometry":{"type":"Point","coordinates":[-122.4008834,37.78861111]},"properties":{"name":"San Francisco","scalerank":3,"website":"www.sfport.com","natlscale":75,"featurecla":"Port"}},
{"type":"Feature","geometry":{"type":"Point","coordinates":[-80.16702002,25.775]},"properties":{"name":"Miami","scalerank":3,"website":"www.miamidade.gov/portofmiami","natlscale":75,"featurecla":"Port"}},
{"type":"Feature","geometry":{"type":"Point","coordinates":[-82.43616019,27.93]},"properties":{"name":"Tampa","scalerank":3,"website":"www.tampaport.com","natlscale":75,"featurecla":"Port"}},
{"type":"Feature","geometry":{"type":"Point","coordinates":[-157.8737338,21.30944444]},"properties":{"name":"Honolulu","scalerank":3,"website":"www.state.hi.us/dot/harbors","natlscale":75,"featurecla":"Port"}},
{"type":"Feature","geometry":{"type":"Point","coordinates":[-71.03545347,42.36361111]},"properties":{"name":"Boston","scalerank":3,"website":"www.massport.com/ports","natlscale":75,"featurecla":"Port"}},
{"type":"Feature","geometry":{"type":"Point","coordinates":[-76.55565371,39.2325]},"properties":{"name":"Baltimore","scalerank":3,"website":"www.mpa.state.md.us","natlscale":75,"featurecla":"Port"}},
{"type":"Feature","geometry":{"type":"Point","coordinates":[-74.02426384,40.68833333]},"properties":{"name":"New York","scalerank":3,"website":"www.panynj.gov","natlscale":75,"featurecla":"Port"}},
{"type":"Feature","geometry":{"type":"Point","coordinates":[-94.81790342,29.30416667]},"properties":{"name":"Galveston","scalerank":3,"website":"www.portofgalveston.com","natlscale":75,"featurecla":"Port"}},
{"type":"Feature","geometry":{"type":"Point","coordinates":[-76.29252061,36.90194444]},"properties":{"name":"Norfolk","scalerank":3,"website":"www.vaports.com","natlscale":75,"featurecla":"Port"}},
{"type":"Feature","geometry":{"type":"Point","coordinates":[-122.3597173,47.60222222]},"properties":{"name":"Seattle","scalerank":3,"website":"www.portseattle.org","natlscale":75,"featurecla":"Port"}},
{"type":"Feature","geometry":{"type":"Point","coordinates":[18.4352768,-33.90916667]},"properties":{"name":"Cape Town","scalerank":3,"website":"www.transnetnationalportsauthority.net","natlscale":75,"featurecla":"Port"}},
{"type":"Feature","geometry":{"type":"Point","coordinates":[-79.38,43.61]},"properties":{"name":"Toronto","scalerank":3,"website":"","natlscale":75,"featurecla":"Port"}},
{"type":"Feature","geometry":{"type":"Point","coordinates":[-87.6,41.88]},"properties":{"name":"Chicago","scalerank":3,"website":"","natlscale":75,"featurecla":"Port"}},
{"type":"Feature","geometry":{"type":"Point","coordinates":[13.25088339,-8.783888889]},"properties":{"name":"Luanda","scalerank":4,"website":"www.otal.com/angola","natlscale":50,"featurecla":"Port"}},
{"type":"Feature","geometry":{"type":"Point","coordinates":[-68.27355713,12.14833333]},"properties":{"name":"Kralendijk, Bonaire","scalerank":4,"website":"","natlscale":50,"featurecla":"Port"}},
{"type":"Feature","geometry":{"type":"Point","coordinates":[-63.04375736,18.01444444]},"properties":{"name":"Philipsburg","scalerank":4,"website":"","natlscale":50,"featurecla":"Port"}},
{"type":"Feature","geometry":{"type":"Point","coordinates":[138.5079505,-34.79916667]},"properties":{"name":"Adelaide","scalerank":4,"website":"www.flindersports.com.au","natlscale":50,"featurecla":"Port"}},
{"type":"Feature","geometry":{"type":"Point","coordinates":[153.1684335,-27.3825]},"properties":{"name":"Brisbane","scalerank":4,"website":"www.portbris.com.au","natlscale":50,"featurecla":"Port"}},
{"type":"Feature","geometry":{"type":"Point","coordinates":[118.5732038,-20.3175]},"properties":{"name":"Port Hedland","scalerank":4,"website":"www.phpa.com.au","natlscale":50,"featurecla":"Port"}},
{"type":"Feature","geometry":{"type":"Point","coordinates":[91.82585395,22.26888889]},"properties":{"name":"Chittagong","scalerank":4,"website":"www.cpa.gov.bd","natlscale":50,"featurecla":"Port"}},
{"type":"Feature","geometry":{"type":"Point","coordinates":[-59.62408716,13.10694444]},"properties":{"name":"Bridgetown","scalerank":4,"website":"www.barbadosport.com","natlscale":50,"featurecla":"Port"}},
{"type":"Feature","geometry":{"type":"Point","coordinates":[-73.5246172,45.54361111]},"properties":{"name":"Montreal","scalerank":4,"website":"www.port-montreal.com","natlscale":50,"featurecla":"Port"}},
{"type":"Feature","geometry":{"type":"Point","coordinates":[-70.90477032,-53.16833333]},"properties":{"name":"Punta Arenas","scalerank":4,"website":"www.epa.co.cl","natlscale":50,"featurecla":"Port"}},
{"type":"Feature","geometry":{"type":"Point","coordinates":[-73.22656066,-39.81666667]},"properties":{"name":"Valdivia","scalerank":4,"website":"","natlscale":50,"featurecla":"Port"}},
{"type":"Feature","geometry":{"type":"Point","coordinates":[121.6503534,38.93361111]},"properties":{"name":"Dalian","scalerank":4,"website":"www.portdalian.com","natlscale":50,"featurecla":"Port"}},
{"type":"Feature","geometry":{"type":"Point","coordinates":[119.30053,26.0475]},"properties":{"name":"Fuzhou","scalerank":4,"website":"","natlscale":50,"featurecla":"Port"}},
{"type":"Feature","geometry":{"type":"Point","coordinates":[120.31702,36.09583333]},"properties":{"name":"Qingdao","scalerank":4,"website":"www.qdport.com","natlscale":50,"featurecla":"Port"}},
{"type":"Feature","geometry":{"type":"Point","coordinates":[121.4872203,31.22194444]},"properties":{"name":"Shanghai","scalerank":4,"website":"www.portshanghai.com.cn","natlscale":50,"featurecla":"Port"}},
{"type":"Feature","geometry":{"type":"Point","coordinates":[116.7040636,23.35472222]},"properties":{"name":"Shantou","scalerank":4,"website":"","natlscale":50,"featurecla":"Port"}},
{"type":"Feature","geometry":{"type":"Point","coordinates":[-84.80424028,9.981666667]},"properties":{"name":"Puntarenas","scalerank":4,"website":"","natlscale":50,"featurecla":"Port"}},
{"type":"Feature","geometry":{"type":"Point","coordinates":[10.15689046,54.33083333]},"properties":{"name":"Kiel","scalerank":4,"website":"www.port-of-kiel.de","natlscale":50,"featurecla":"Port"}},
{"type":"Feature","geometry":{"type":"Point","coordinates":[-61.38598351,15.29638889]},"properties":{"name":"Roseau","scalerank":4,"website":"","natlscale":50,"featurecla":"Port"}},
{"type":"Feature","geometry":{"type":"Point","coordinates":[-69.87585395,18.47527778]},"properties":{"name":"Santo Domingo","scalerank":4,"website":"www.apordom.gov.do","natlscale":50,"featurecla":"Port"}},
{"type":"Feature","geometry":{"type":"Point","coordinates":[-0.98598351,37.58944444]},"properties":{"name":"Cartagena","scalerank":4,"website":"www.apc.es","natlscale":50,"featurecla":"Port"}},
{"type":"Feature","geometry":{"type":"Point","coordinates":[-8.726207303,42.2425]},"properties":{"name":"Vigo","scalerank":4,"website":"www.apvigo.com","natlscale":50,"featurecla":"Port"}},
{"type":"Feature","geometry":{"type":"Point","coordinates":[-16.22656066,28.47472222]},"properties":{"name":"Santa Cruz de Tenerife","scalerank":4,"website":"www.puertosdetenerife.org","natlscale":50,"featurecla":"Port"}},
{"type":"Feature","geometry":{"type":"Point","coordinates":[24.69075383,59.46]},"properties":{"name":"Tallinn","scalerank":4,"website":"www.portoftallinn.com","natlscale":50,"featurecla":"Port"}},
{"type":"Feature","geometry":{"type":"Point","coordinates":[178.4210836,-18.1325]},"properties":{"name":"Suva","scalerank":4,"website":"www.fijiports.com.fj","natlscale":50,"featurecla":"Port"}},
{"type":"Feature","geometry":{"type":"Point","coordinates":[6.633333333,43.27055556]},"properties":{"name":"Saint-Tropez","scalerank":4,"website":"","natlscale":50,"featurecla":"Port"}},
{"type":"Feature","geometry":{"type":"Point","coordinates":[-4.303180212,55.86305556]},"properties":{"name":"Glasgow","scalerank":4,"website":"www.glasgowharbour.com","natlscale":50,"featurecla":"Port"}},
{"type":"Feature","geometry":{"type":"Point","coordinates":[-1.424440518,50.9025]},"properties":{"name":"Southampton","scalerank":4,"website":"www.abports.co.uk/custinfo/ports/soton.htm","natlscale":50,"featurecla":"Port"}},
{"type":"Feature","geometry":{"type":"Point","coordinates":[-5.357243816,36.13694444]},"properties":{"name":"Gibraltar","scalerank":4,"website":"www.gibraltarport.com","natlscale":50,"featurecla":"Port"}},
{"type":"Feature","geometry":{"type":"Point","coordinates":[-13.70989399,9.516388889]},"properties":{"name":"Conakry","scalerank":4,"website":"","natlscale":50,"featurecla":"Port"}},
{"type":"Feature","geometry":{"type":"Point","coordinates":[-15.57267373,11.85833333]},"properties":{"name":"Bissau","scalerank":4,"website":"","natlscale":50,"featurecla":"Port"}},
{"type":"Feature","geometry":{"type":"Point","coordinates":[24.00971731,35.51805556]},"properties":{"name":"Canea","scalerank":4,"website":"","natlscale":50,"featurecla":"Port"}},
{"type":"Feature","geometry":{"type":"Point","coordinates":[21.31861013,37.64638889]},"properties":{"name":"Katakolon","scalerank":4,"website":"","natlscale":50,"featurecla":"Port"}},
{"type":"Feature","geometry":{"type":"Point","coordinates":[-90.84128386,13.91555556]},"properties":{"name":"San Jose","scalerank":4,"website":"www.cocatram.org.ni/puertosca/pto_sanjose_guatemala.html","natlscale":50,"featurecla":"Port"}},
{"type":"Feature","geometry":{"type":"Point","coordinates":[114.1561837,22.32111111]},"properties":{"name":"Hong Kong","scalerank":4,"website":"www.mardep.gov.hk","natlscale":50,"featurecla":"Port"}},
{"type":"Feature","geometry":{"type":"Point","coordinates":[-72.33969376,18.56583333]},"properties":{"name":"Port-au-Prince","scalerank":4,"website":"www.apn.gouv.ht","natlscale":50,"featurecla":"Port"}},
{"type":"Feature","geometry":{"type":"Point","coordinates":[112.7239105,-7.206388889]},"properties":{"name":"Surabaya","scalerank":4,"website":"www.tps.co.id","natlscale":50,"featurecla":"Port"}},
{"type":"Feature","geometry":{"type":"Point","coordinates":[-6.206007067,53.34444444]},"properties":{"name":"Dublin","scalerank":4,"website":"www.dublinport.ie","natlscale":50,"featurecla":"Port"}},
{"type":"Feature","geometry":{"type":"Point","coordinates":[-7.118786808,52.26638889]},"properties":{"name":"Waterford","scalerank":4,"website":"www.portofwaterford.com","natlscale":50,"featurecla":"Port"}},
{"type":"Feature","geometry":{"type":"Point","coordinates":[35.01825677,32.8225]},"properties":{"name":"Haifa","scalerank":4,"website":"www.haifaport.org.il","natlscale":50,"featurecla":"Port"}},
{"type":"Feature","geometry":{"type":"Point","coordinates":[10.30194346,43.55583333]},"properties":{"name":"Livorno","scalerank":4,"website":"www.porto.livorno.it","natlscale":50,"featurecla":"Port"}},
{"type":"Feature","geometry":{"type":"Point","coordinates":[13.93810365,40.74527778]},"properties":{"name":"Ischia","scalerank":4,"website":"","natlscale":50,"featurecla":"Port"}},
{"type":"Feature","geometry":{"type":"Point","coordinates":[-76.82479388,17.98166667]},"properties":{"name":"Kingston","scalerank":4,"website":"www.portjam.com","natlscale":50,"featurecla":"Port"}},
{"type":"Feature","geometry":{"type":"Point","coordinates":[130.8542403,33.9225]},"properties":{"name":"Kitakyushu","scalerank":4,"website":"www.kitaqport.or.jp","natlscale":50,"featurecla":"Port"}},
{"type":"Feature","geometry":{"type":"Point","coordinates":[39.6221437,-4.053055556]},"properties":{"name":"Mombasa","scalerank":4,"website":"www.kpa.co.ke","natlscale":50,"featurecla":"Port"}},
{"type":"Feature","geometry":{"type":"Point","coordinates":[104.9209069,11.58305556]},"properties":{"name":"Phnom Penh","scalerank":4,"website":"www.ppap.com.kh","natlscale":50,"featurecla":"Port"}},
{"type":"Feature","geometry":{"type":"Point","coordinates":[35.51949352,33.905]},"properties":{"name":"Beirut","scalerank":4,"website":"www.portdebeyrouth.com","natlscale":50,"featurecla":"Port"}},
{"type":"Feature","geometry":{"type":"Point","coordinates":[73.50706714,4.175]},"properties":{"name":"Male","scalerank":4,"website":"www.maldport.com.mv","natlscale":50,"featurecla":"Port"}},
{"type":"Feature","geometry":{"type":"Point","coordinates":[-96.13368669,19.20833333]},"properties":{"name":"Veracruz","scalerank":4,"website":"www.puertodeveracruz.com.mx","natlscale":50,"featurecla":"Port"}},
{"type":"Feature","geometry":{"type":"Point","coordinates":[96.16878681,16.76583333]},"properties":{"name":"Yangon","scalerank":4,"website":"www.mot.gov.mm/mpa/index.html","natlscale":50,"featurecla":"Port"}},
{"type":"Feature","geometry":{"type":"Point","coordinates":[174.7898704,-41.2775]},"properties":{"name":"Wellington","scalerank":4,"website":"www.centreport.co.nz","natlscale":50,"featurecla":"Port"}},
{"type":"Feature","geometry":{"type":"Point","coordinates":[14.58580683,53.43055556]},"properties":{"name":"Szczecin","scalerank":4,"website":"www.port.szczecin.pl","natlscale":50,"featurecla":"Port"}},
{"type":"Feature","geometry":{"type":"Point","coordinates":[39.1590106,21.45861111]},"properties":{"name":"Jeddah","scalerank":4,"website":"www.ports.gov.sa","natlscale":50,"featurecla":"Port"}},
{"type":"Feature","geometry":{"type":"Point","coordinates":[-17.42514723,14.68222222]},"properties":{"name":"Dakar","scalerank":4,"website":"www.portdakar.sn","natlscale":50,"featurecla":"Port"}},
{"type":"Feature","geometry":{"type":"Point","coordinates":[103.7221437,1.292777778]},"properties":{"name":"Singapore","scalerank":4,"website":"www.mpa.gov.sg","natlscale":50,"featurecla":"Port"}},
{"type":"Feature","geometry":{"type":"Point","coordinates":[-13.20795053,8.494166667]},"properties":{"name":"Freetown","scalerank":4,"website":"","natlscale":50,"featurecla":"Port"}},
{"type":"Feature","geometry":{"type":"Point","coordinates":[18.10936396,59.335]},"properties":{"name":"Stockholm","scalerank":4,"website":"www.stoports.com","natlscale":50,"featurecla":"Port"}},
{"type":"Feature","geometry":{"type":"Point","coordinates":[100.5691402,13.60694444]},"properties":{"name":"Bangkok","scalerank":4,"website":"www.bmt.co.th","natlscale":50,"featurecla":"Port"}},
{"type":"Feature","geometry":{"type":"Point","coordinates":[26.52196702,40.26472222]},"properties":{"name":"Canakkale","scalerank":4,"website":"www.canakkale.gov.tr","natlscale":50,"featurecla":"Port"}},
{"type":"Feature","geometry":{"type":"Point","coordinates":[-149.8877503,61.23555556]},"properties":{"name":"Anchorage","scalerank":4,"website":"www.muni.org","natlscale":50,"featurecla":"Port"}},
{"type":"Feature","geometry":{"type":"Point","coordinates":[-118.2007067,33.74888889]},"properties":{"name":"Long Beach","scalerank":4,"website":"www.polb.com","natlscale":50,"featurecla":"Port"}},
{"type":"Feature","geometry":{"type":"Point","coordinates":[-122.3012367,37.79944444]},"properties":{"name":"Oakland","scalerank":4,"website":"www.portofoakland.com","natlscale":50,"featurecla":"Port"}},
{"type":"Feature","geometry":{"type":"Point","coordinates":[-81.55918728,30.38083333]},"properties":{"name":"Jacksonville","scalerank":4,"website":"www.jaxport.com","natlscale":50,"featurecla":"Port"}},
{"type":"Feature","geometry":{"type":"Point","coordinates":[-75.13457008,39.89527778]},"properties":{"name":"Philadelphia","scalerank":4,"website":"www.philaport.com","natlscale":50,"featurecla":"Port"}},
{"type":"Feature","geometry":{"type":"Point","coordinates":[-79.92355713,32.82222222]},"properties":{"name":"Charleston","scalerank":4,"website":"www.scspa.com","natlscale":50,"featurecla":"Port"}},
{"type":"Feature","geometry":{"type":"Point","coordinates":[-71.32444052,41.4825]},"properties":{"name":"Newport","scalerank":4,"website":"","natlscale":50,"featurecla":"Port"}},
{"type":"Feature","geometry":{"type":"Point","coordinates":[106.7217903,10.79388889]},"properties":{"name":"Ho Chi Minh City","scalerank":4,"website":"www.vpa.org.vn/english/members/south/saigonnew.htm","natlscale":50,"featurecla":"Port"}},
{"type":"Feature","geometry":{"type":"Point","coordinates":[44.98969376,12.79555556]},"properties":{"name":"Aden","scalerank":4,"website":"www.portofaden.com","natlscale":50,"featurecla":"Port"}},
{"type":"Feature","geometry":{"type":"Point","coordinates":[31.02338045,-29.88111111]},"properties":{"name":"Durban","scalerank":4,"website":"www.transnetnationalportsauthority.net","natlscale":50,"featurecla":"Port"}},
{"type":"Feature","geometry":{"type":"Point","coordinates":[25.6352768,-33.96138889]},"properties":{"name":"Port Elizabeth","scalerank":4,"website":"www.transnetnationalportsauthority.net","natlscale":50,"featurecla":"Port"}},
{"type":"Feature","geometry":{"type":"Point","coordinates":[25.6352768,-33.96138889]},"properties":{"name":"Port Elizabeth","scalerank":4,"website":"www.transnetnationalportsauthority.net","natlscale":50,"featurecla":"Port"}},
{"type":"Feature","geometry":{"type":"Point","coordinates":[-83.03,42.33]},"properties":{"name":"Detroit","scalerank":4,"website":"","natlscale":50,"featurecla":"Port"}},
{"type":"Feature","geometry":{"type":"Point","coordinates":[-90.16,35.06]},"properties":{"name":"Port Of Memphis","scalerank":4,"website":"","natlscale":50,"featurecla":"Port"}},
{"type":"Feature","geometry":{"type":"Point","coordinates":[-90.2,38.71]},"properties":{"name":"Tri-City Port","scalerank":4,"website":"","natlscale":50,"featurecla":"Port"}},
{"type":"Feature","geometry":{"type":"Point","coordinates":[24.96,60.16]},"properties":{"name":"Helsinki","scalerank":4,"website":"","natlscale":50,"featurecla":"Port"}},
{"type":"Feature","geometry":{"type":"Point","coordinates":[30.3,59.93]},"properties":{"name":"Sankt-Peterburg","scalerank":4,"website":"","natlscale":50,"featurecla":"Port"}}
]}