{"type":"Topology","arcs":[],"objects":{"places":{"type":"GeometryCollection","geometries":[{"type":"Point","coordinates":[-4.7500308,55.93329],"properties":{"NAME":"Greenock","NAMEASCII":"Greenock","SCALERANK":8,"ADM0_A3":"GBR","ISO_A2":"GB","TIMEZONE":"Europe/London"}},{"type":"Point","coordinates":[-1.3798815645185654,54.903407084625925],"properties":{"NAME":"Sunderland","NAMEASCII":"Sunderland","SCALERANK":8,"ADM0_A3":"GBR","ISO_A2":"GB","TIMEZONE":"Europe/London"}},{"type":"Point","coordinates":[-1.3999768,50.9000314],"properties":{"NAME":"Southampton","NAMEASCII":"Southampton","SCALERANK":8,"ADM0_A3":"GBR","ISO_A2":"GB","TIMEZONE":""}},{"type":"Point","coordinates":[-2.5833155,51.4499978],"properties":{"NAME":"Bristol","NAMEASCII":"Bristol","SCALERANK":8,"ADM0_A3":"GBR","ISO_A2":"GB","TIMEZONE":"Europe/London"}},{"type":"Point","coordinates":[-1.9000497,50.7299901],"properties":{"NAME":"Bournemouth","NAMEASCII":"Bournemouth","SCALERANK":8,"ADM0_A3":"GBR","ISO_A2":"GB","TIMEZONE":"Europe/London"}},{"type":"Point","coordinates":[-7.3000043,54.6000122],"properties":{"NAME":"Omagh","NAMEASCII":"Omagh","SCALERANK":8,"ADM0_A3":"GBR","ISO_A2":"GB","TIMEZONE":"Europe/London"}},{"type":"Point","coordinates":[-2.9029645759748974,53.18632509137432],"properties":{"NAME":"Chester","NAMEASCII":"Chester","SCALERANK":8,"ADM0_A3":"GBR","ISO_A2":"GB","TIMEZONE":"Europe/London"}},{"type":"Point","coordinates":[-3.9500021,51.6299868],"properties":{"NAME":"Swansea","NAMEASCII":"Swansea","SCALERANK":8,"ADM0_A3":"GBR","ISO_A2":"GB","TIMEZONE":"Europe/London"}},{"type":"Point","coordinates":[-2.9299868,54.8799951],"properties":{"NAME":"Carlisle","NAMEASCII":"Carlisle","SCALERANK":8,"ADM0_A3":"GBR","ISO_A2":"GB","TIMEZONE":"Europe/London"}},{"type":"Point","coordinates":[0.7199971,51.5500175],"properties":{"NAME":"Southend-on-Sea","NAMEASCII":"Southend-on-Sea","SCALERANK":8,"ADM0_A3":"GBR","ISO_A2":"GB","TIMEZONE":"Europe/London"}},{"type":"Point","coordinates":[-0.9800283,51.4699707],"properties":{"NAME":"Reading","NAMEASCII":"Reading","SCALERANK":8,"ADM0_A3":"GBR","ISO_A2":"GB","TIMEZONE":"Europe/London"}},{"type":"Point","coordinates":[-1.1332489,52.6299774],"properties":{"NAME":"Leicester","NAMEASCII":"Leicester","SCALERANK":8,"ADM0_A3":"GBR","ISO_A2":"GB","TIMEZONE":"Europe/London"}},{"type":"Point","coordinates":[-1.754464650200906,53.79167546080204],"properties":{"NAME":"Bradford","NAMEASCII":"Bradford","SCALERANK":8,"ADM0_A3":"GBR","ISO_A2":"GB","TIMEZONE":"Europe/London"}},{"type":"Point","coordinates":[-1.4999966,53.3666767],"properties":{"NAME":"Sheffield","NAMEASCII":"Sheffield","SCALERANK":8,"ADM0_A3":"GBR","ISO_A2":"GB","TIMEZONE":"Europe/London"}},{"type":"Point","coordinates":[-5.1120758,56.8164779],"properties":{"NAME":"Fort William","NAMEASCII":"Fort William","SCALERANK":8,"ADM0_A3":"GBR","ISO_A2":"GB","TIMEZONE":"Europe/London"}},{"type":"Point","coordinates":[-4.6166797,55.4503996],"properties":{"NAME":"Ayr","NAMEASCII":"Ayr","SCALERANK":7,"ADM0_A3":"GBR","ISO_A2":"GB","TIMEZONE":"Europe/London"}},{"type":"Point","coordinates":[-2.105049991692299,57.145133499698055],"properties":{"NAME":"Aberdeen","NAMEASCII":"Aberdeen","SCALERANK":7,"ADM0_A3":"GBR","ISO_A2":"GB","TIMEZONE":"Europe/London"}},{"type":"Point","coordinates":[-3.4363752200061097,56.3926089503458],"properties":{"NAME":"Perth","NAMEASCII":"Perth","SCALERANK":7,"ADM0_A3":"GBR","ISO_A2":"GB","TIMEZONE":""}},{"type":"Point","coordinates":[-3.0000084,56.470389],"properties":{"NAME":"Dundee","NAMEASCII":"Dundee","SCALERANK":7,"ADM0_A3":"GBR","ISO_A2":"GB","TIMEZONE":"Europe/London"}},{"type":"Point","coordinates":[-1.2300131,54.5803752],"properties":{"NAME":"Middlesbrough","NAMEASCII":"Middlesbrough","SCALERANK":7,"ADM0_A3":"GBR","ISO_A2":"GB","TIMEZONE":"Europe/London"}},{"type":"Point","coordinates":[-1.5026745279244569,52.40074087605872],"properties":{"NAME":"Coventry","NAMEASCII":"Coventry","SCALERANK":7,"ADM0_A3":"GBR","ISO_A2":"GB","TIMEZONE":"Europe/London"}},{"type":"Point","coordinates":[-2.3500222,51.3837486],"properties":{"NAME":"Bath","NAMEASCII":"Bath","SCALERANK":7,"ADM0_A3":"GBR","ISO_A2":"GB","TIMEZONE":"Europe/London"}},{"type":"Point","coordinates":[-3.5299502,50.7004053],"properties":{"NAME":"Exeter","NAMEASCII":"Exeter","SCALERANK":7,"ADM0_A3":"GBR","ISO_A2":"GB","TIMEZONE":"Europe/London"}},{"type":"Point","coordinates":[0.1166231,52.2003913],"properties":{"NAME":"Cambridge","NAMEASCII":"Cambridge","SCALERANK":7,"ADM0_A3":"GBR","ISO_A2":"GB","TIMEZONE":"Europe/London"}},{"type":"Point","coordinates":[-0.3299905,53.7504258],"properties":{"NAME":"Kingston upon Hull","NAMEASCII":"Kingston upon Hull","SCALERANK":7,"ADM0_A3":"GBR","ISO_A2":"GB","TIMEZONE":"Europe/London"}},{"type":"Point","coordinates":[-7.3332839,55.0003754],"properties":{"NAME":"Londonderry/Derry","NAMEASCII":"Londonderry","SCALERANK":7,"ADM0_A3":"GBR","ISO_A2":"GB","TIMEZONE":"Europe/London"}},{"type":"Point","coordinates":[-6.047722990732365,54.51034008127803],"properties":{"NAME":"Lisburn","NAMEASCII":"Lisburn","SCALERANK":7,"ADM0_A3":"GBR","ISO_A2":"GB","TIMEZONE":""}},{"type":"Point","coordinates":[-5.5500336,50.1337215],"properties":{"NAME":"Penzance","NAMEASCII":"Penzance","SCALERANK":7,"ADM0_A3":"GBR","ISO_A2":"GB","TIMEZONE":"Europe/London"}},{"type":"Point","coordinates":[-1.0721040586041342,53.9511680622694],"properties":{"NAME":"York","NAMEASCII":"York","SCALERANK":7,"ADM0_A3":"GBR","ISO_A2":"GB","TIMEZONE":"Europe/London"}},{"type":"Point","coordinates":[-3.0500053,53.8303951],"properties":{"NAME":"Blackpool","NAMEASCII":"Blackpool","SCALERANK":7,"ADM0_A3":"GBR","ISO_A2":"GB","TIMEZONE":"Europe/London"}},{"type":"Point","coordinates":[-3.5500007,55.0670897],"properties":{"NAME":"Dumfries","NAMEASCII":"Dumfries","SCALERANK":7,"ADM0_A3":"GBR","ISO_A2":"GB","TIMEZONE":""}},{"type":"Point","coordinates":[-0.4299844,54.2803935],"properties":{"NAME":"Scarborough","NAMEASCII":"Scarborough","SCALERANK":7,"ADM0_A3":"GBR","ISO_A2":"GB","TIMEZONE":""}},{"type":"Point","coordinates":[-4.1599893,50.3853858],"properties":{"NAME":"Plymouth","NAMEASCII":"Plymouth","SCALERANK":7,"ADM0_A3":"GBR","ISO_A2":"GB","TIMEZONE":"Europe/London"}},{"type":"Point","coordinates":[1.1699955,52.0703475],"properties":{"NAME":"Ipswich","NAMEASCII":"Ipswich","SCALERANK":7,"ADM0_A3":"GBR","ISO_A2":"GB","TIMEZONE":"Europe/London"}},{"type":"Point","coordinates":[1.3000134,52.630365],"properties":{"NAME":"Norwich","NAMEASCII":"Norwich","SCALERANK":7,"ADM0_A3":"GBR","ISO_A2":"GB","TIMEZONE":"Europe/London"}},{"type":"Point","coordinates":[-0.1699744,50.8303457],"properties":{"NAME":"Brighton","NAMEASCII":"Brighton","SCALERANK":7,"ADM0_A3":"GBR","ISO_A2":"GB","TIMEZONE":"Europe/London"}},{"type":"Point","coordinates":[-2.9500114,58.9669808],"properties":{"NAME":"Kirkwall","NAMEASCII":"Kirkwall","SCALERANK":7,"ADM0_A3":"GBR","ISO_A2":"GB","TIMEZONE":"Europe/London"}},{"type":"Point","coordinates":[-4.2332664,57.467124],"properties":{"NAME":"Inverness","NAMEASCII":"Inverness","SCALERANK":7,"ADM0_A3":"GBR","ISO_A2":"GB","TIMEZONE":"Europe/London"}},{"type":"Point","coordinates":[-1.2480763373698314,51.751827978066444],"properties":{"NAME":"Oxford","NAMEASCII":"Oxford","SCALERANK":7,"ADM0_A3":"GBR","ISO_A2":"GB","TIMEZONE":"Europe/London"}},{"type":"Point","coordinates":[-0.4200108,51.8803591],"properties":{"NAME":"Luton","NAMEASCII":"Luton","SCALERANK":7,"ADM0_A3":"GBR","ISO_A2":"GB","TIMEZONE":"Europe/London"}},{"type":"Point","coordinates":[-1.0800222,50.8003475],"properties":{"NAME":"Portsmouth","NAMEASCII":"Portsmouth","SCALERANK":7,"ADM0_A3":"GBR","ISO_A2":"GB","TIMEZONE":"Europe/London"}},{"type":"Point","coordinates":[-0.2484040303391689,52.567187150649296],"properties":{"NAME":"Peterborough","NAMEASCII":"Peterborough","SCALERANK":7,"ADM0_A3":"GBR","ISO_A2":"GB","TIMEZONE":"Europe/London"}},{"type":"Point","coordinates":[-1.1657063345433347,52.941084202004],"properties":{"NAME":"Nottingham","NAMEASCII":"Nottingham","SCALERANK":7,"ADM0_A3":"GBR","ISO_A2":"GB","TIMEZONE":"Europe/London"}},{"type":"Point","coordinates":[-2.1800068,53.0003683],"properties":{"NAME":"Stoke","NAMEASCII":"Stoke","SCALERANK":7,"ADM0_A3":"GBR","ISO_A2":"GB","TIMEZONE":"Europe/London"}},{"type":"Point","coordinates":[1.3000134,51.1337122],"properties":{"NAME":"Dover","NAMEASCII":"Dover","SCALERANK":7,"ADM0_A3":"GBR","ISO_A2":"GB","TIMEZONE":"Europe/London"}},{"type":"Point","coordinates":[-3.2190906,55.9483279],"properties":{"NAME":"Edinburgh","NAMEASCII":"Edinburgh","SCALERANK":6,"ADM0_A3":"GBR","ISO_A2":"GB","TIMEZONE":"Europe/London"}},{"type":"Point","coordinates":[-1.6116254893345796,54.98974205316957],"properties":{"NAME":"Newcastle","NAMEASCII":"Newcastle","SCALERANK":6,"ADM0_A3":"GBR","ISO_A2":"GB","TIMEZONE":"Europe/London"}},{"type":"Point","coordinates":[-2.961934009816594,53.405068298036525],"properties":{"NAME":"Liverpool","NAMEASCII":"Liverpool","SCALERANK":6,"ADM0_A3":"GBR","ISO_A2":"GB","TIMEZONE":"Europe/London"}},{"type":"Point","coordinates":[-3.1675981955277295,51.48261904913091],"properties":{"NAME":"Cardiff","NAMEASCII":"Cardiff","SCALERANK":6,"ADM0_A3":"GBR","ISO_A2":"GB","TIMEZONE":"Australia/Sydney"}},{"type":"Point","coordinates":[-3.0833625,58.4332925],"properties":{"NAME":"Wick","NAMEASCII":"Wick","SCALERANK":6,"ADM0_A3":"GBR","ISO_A2":"GB","TIMEZONE":"Europe/London"}},{"type":"Point","coordinates":[-1.5513477114128407,53.790016637752316],"properties":{"NAME":"Leeds","NAMEASCII":"Leeds","SCALERANK":6,"ADM0_A3":"GBR","ISO_A2":"GB","TIMEZONE":"Europe/London"}},{"type":"Point","coordinates":[-1.1499921,60.1500352],"properties":{"NAME":"Lerwick","NAMEASCII":"Lerwick","SCALERANK":6,"ADM0_A3":"GBR","ISO_A2":"GB","TIMEZONE":"Europe/London"}},{"type":"Point","coordinates":[-2.2486846671598855,53.47531992472453],"properties":{"NAME":"Manchester","NAMEASCII":"Manchester","SCALERANK":4,"ADM0_A3":"GBR","ISO_A2":"GB","TIMEZONE":"Europe/London"}},{"type":"Point","coordinates":[-1.9219426,52.4769198],"properties":{"NAME":"Birmingham","NAMEASCII":"Birmingham","SCALERANK":4,"ADM0_A3":"GBR","ISO_A2":"GB","TIMEZONE":"Europe/London"}},{"type":"Point","coordinates":[-5.928177644913072,54.594245156841886],"properties":{"NAME":"Belfast","NAMEASCII":"Belfast","SCALERANK":4,"ADM0_A3":"GBR","ISO_A2":"GB","TIMEZONE":"Europe/London"}},{"type":"Point","coordinates":[-4.239100528802634,55.86226975799262],"properties":{"NAME":"Glasgow","NAMEASCII":"Glasgow","SCALERANK":3,"ADM0_A3":"GBR","ISO_A2":"GB","TIMEZONE":"Europe/London"}},{"type":"Point","coordinates":[-0.1186677,51.5019406],"properties":{"NAME":"London","NAMEASCII":"London","SCALERANK":0,"ADM0_A3":"GBR","ISO_A2":"GB","TIMEZONE":"Europe/London"}}]}}}